[
  {
    "city": "New Delhi",
    "heatmap": [
      { "lat": 28.6139, "lon": 77.209, "intensity": 1.0 }
    ]
  },
  {
    "city": "Mumbai",
    "heatmap": [
      { "lat": 19.076, "lon": 72.8777, "intensity": 0.85 }
    ]
  },
  {
    "city": "Bangalore",
    "heatmap": [
      { "lat": 12.9716, "lon": 77.5946, "intensity": 0.7 }
    ]
  },
  {
    "city": "Hyderabad",
    "heatmap": [
      { "lat": 17.385, "lon": 78.4867, "intensity": 0.9 }
    ]
  },
  {
    "city": "Ahmedabad",
    "heatmap": [
      { "lat": 23.0225, "lon": 72.5714, "intensity": 0.88 }
    ]
  },
  {
    "city": "Chennai",
    "heatmap": [
      { "lat": 13.0827, "lon": 80.2707, "intensity": 0.92 }
    ]
  },
  {
    "city": "Kolkata",
    "heatmap": [
      { "lat": 22.5726, "lon": 88.3639, "intensity": 0.8 }
    ]
  },
  {
    "city": "Pune",
    "heatmap": [
      { "lat": 18.5204, "lon": 73.8567, "intensity": 0.65 }
    ]
  },
  {
    "city": "Jaipur",
    "heatmap": [
      { "lat": 26.9124, "lon": 75.7873, "intensity": 0.9 }
    ]
  },
  {
    "city": "Surat",
    "heatmap": [
      { "lat": 21.1702, "lon": 72.8311, "intensity": 0.78 }
    ]
  },
  {
    "city": "Lucknow",
    "heatmap": [
      { "lat": 26.8467, "lon": 80.9462, "intensity": 0.88 }
    ]
  },
  {
    "city": "Kanpur",
    "heatmap": [
      { "lat": 26.4499, "lon": 80.3319, "intensity": 0.85 }
    ]
  },
  {
    "city": "Nagpur",
    "heatmap": [
      { "lat": 21.1458, "lon": 79.0882, "intensity": 0.91 }
    ]
  },
  {
    "city": "Indore",
    "heatmap": [
      { "lat": 22.7196, "lon": 75.8577, "intensity": 0.77 }
    ]
  },
  {
    "city": "Navi Mumbai",
    "heatmap": [
      { "lat": 19.2183, "lon": 72.9781, "intensity": 0.68 }
    ]
  },
  {
    "city": "Bhopal",
    "heatmap": [
      { "lat": 23.2599, "lon": 77.4126, "intensity": 0.74 }
    ]
  },
  {
    "city": "Visakhapatnam",
    "heatmap": [
      { "lat": 17.6868, "lon": 83.2185, "intensity": 0.76 }
    ]
  },
  {
    "city": "Patna",
    "heatmap": [
      { "lat": 25.5941, "lon": 85.1376, "intensity": 0.89 }
    ]
  },
  {
    "city": "Vadodara",
    "heatmap": [
      { "lat": 22.3072, "lon": 73.1812, "intensity": 0.75 }
    ]
  },
  {
    "city": "Ghaziabad",
    "heatmap": [
      { "lat": 28.6692, "lon": 77.4538, "intensity": 0.93 }
    ]
  },
  {
    "city": "Ludhiana",
    "heatmap": [
      { "lat": 30.9, "lon": 75.8573, "intensity": 0.7 }
    ]
  },
  {
    "city": "Agra",
    "heatmap": [
      { "lat": 27.1767, "lon": 78.0081, "intensity": 0.91 }
    ]
  },
  {
    "city": "Nashik",
    "heatmap": [
      { "lat": 19.9975, "lon": 73.7898, "intensity": 0.68 }
    ]
  },
  {
    "city": "Faridabad",
    "heatmap": [
      { "lat": 28.4089, "lon": 77.3178, "intensity": 0.92 }
    ]
  },
  {
    "city": "Meerut",
    "heatmap": [
      { "lat": 28.9845, "lon": 77.7064, "intensity": 0.87 }
    ]
  },
  {
    "city": "Rajkot",
    "heatmap": [
      { "lat": 22.3039, "lon": 70.8022, "intensity": 0.78 }
    ]
  },
  {
    "city": "Kalyan",
    "heatmap": [
      { "lat": 19.2403, "lon": 73.1305, "intensity": 0.66 }
    ]
  },
  {
    "city": "Thane",
    "heatmap": [
      { "lat": 19.3919, "lon": 72.8397, "intensity": 0.64 }
    ]
  },
  {
    "city": "Varanasi",
    "heatmap": [
      { "lat": 25.3176, "lon": 82.9739, "intensity": 0.88 }
    ]
  },
  {
    "city": "Srinagar",
    "heatmap": [
      { "lat": 34.0837, "lon": 74.7973, "intensity": 0.55 }
    ]
  },
  {
    "city": "Aurangabad",
    "heatmap": [
      { "lat": 19.8762, "lon": 75.3433, "intensity": 0.75 }
    ]
  },
  {
    "city": "Dhanbad",
    "heatmap": [
      { "lat": 23.7957, "lon": 86.4304, "intensity": 0.86 }
    ]
  },
  {
    "city": "Amritsar",
    "heatmap": [
      { "lat": 31.634, "lon": 74.8723, "intensity": 0.73 }
    ]
  },
  {
    "city": "Navi Mumbai (Kharghar)",
    "heatmap": [
      { "lat": 19.033, "lon": 73.0297, "intensity": 0.65 }
    ]
  },
  {
    "city": "Prayagraj",
    "heatmap": [
      { "lat": 25.4358, "lon": 81.8463, "intensity": 0.84 }
    ]
  },
  {
    "city": "Ranchi",
    "heatmap": [
      { "lat": 23.3441, "lon": 85.3096, "intensity": 0.76 }
    ]
  },
  {
    "city": "Howrah",
    "heatmap": [
      { "lat": 22.5958, "lon": 88.2636, "intensity": 0.79 }
    ]
  },
  {
    "city": "Coimbatore",
    "heatmap": [
      { "lat": 11.0168, "lon": 76.9558, "intensity": 0.62 }
    ]
  },
  {
    "city": "Jabalpur",
    "heatmap": [
      { "lat": 23.1815, "lon": 79.9864, "intensity": 0.77 }
    ]
  },
  {
    "city": "Gwalior",
    "heatmap": [
      { "lat": 26.2183, "lon": 78.1828, "intensity": 0.86 }
    ]
  },
  {
    "city": "Vijayawada",
    "heatmap": [
      { "lat": 16.5062, "lon": 80.648, "intensity": 0.78 }
    ]
  },
  {
    "city": "Jodhpur",
    "heatmap": [
      { "lat": 26.2389, "lon": 73.0243, "intensity": 0.9 }
    ]
  },
  {
    "city": "Madurai",
    "heatmap": [
      { "lat": 9.9252, "lon": 78.1198, "intensity": 0.63 }
    ]
  },
  {
    "city": "Raipur",
    "heatmap": [
      { "lat": 21.2514, "lon": 81.6296, "intensity": 0.87 }
    ]
  },
  {
    "city": "Kota",
    "heatmap": [
      { "lat": 25.2138, "lon": 75.8648, "intensity": 0.76 }
    ]
  },
  {
    "city": "Guwahati",
    "heatmap": [
      { "lat": 26.1445, "lon": 91.7362, "intensity": 0.74 }
    ]
  },
  {
    "city": "Chandigarh",
    "heatmap": [
      { "lat": 30.7333, "lon": 76.7794, "intensity": 0.6 }
    ]
  },
  {
    "city": "Solapur",
    "heatmap": [
      { "lat": 17.6599, "lon": 75.9064, "intensity": 0.77 }
    ]
  },
  {
    "city": "Hubli",
    "heatmap": [
      { "lat": 15.3647, "lon": 75.124, "intensity": 0.65 }
    ]
  },
  {
    "city": "Tiruchirappalli",
    "heatmap": [
      { "lat": 10.7905, "lon": 78.7047, "intensity": 0.72 }
    ]
  }
]
